{
  "count": 100,
  "next": "",
  "previous": "",
  "results": [
    {
      "id": 1626989,
      "funder": {
        "id": 3704,
        "name": "CanadaHelps"
      },
      "charity": {
        "id": 48546,
        "name": "Namo Buddha Foundation",
        "recipient_size": 213565
      },
      "gift_amount": 258251.0,
      "focus": "Education",
      "focus_display": "Education",
      "location": {
        "province": "BC",
        "city": "Vancouver"
      },
      "year": 2019,
      "details": null
    },
    {
      "id": 1362432,
      "funder": {
        "id": 3704,
        "name": "CanadaHelps"
      },
      "charity": {
        "id": 48546,
        "name": "Namo Buddha Foundation",
        "recipient_size": 213565
      },
      "gift_amount": 158369.0,
      "focus": "Education",
      "focus_display": "Education",
      "location": {
        "province": "BC",
        "city": "Vancouver"
      },
      "year": 2015,
      "details": null
    },
    {
      "id": 1487755,
      "funder": {
        "id": 3704,
        "name": "CanadaHelps"
      },
      "charity": {
        "id": 48546,
        "name": "Namo Buddha Foundation",
        "recipient_size": 213565
      },
      "gift_amount": 94570.0,
      "focus": "Education",
      "focus_display": "Education",
      "location": {
        "province": "BC",
        "city": "Vancouver"
      },
      "year": 2018,
      "details": null
    },
    {
      "id": 1756350,
      "funder": {
        "id": 3704,
        "name": "CanadaHelps"
      },
      "charity": {
        "id": 48546,
        "name": "Namo Buddha Foundation",
        "recipient_size": 213565
      },
      "gift_amount": 79528.0,
      "focus": "Education",
      "focus_display": "Education",
      "location": {
        "province": "BC",
        "city": "Vancouver"
      },
      "year": 2020,
      "details": null
    },
    {
      "id": 2433646,
      "funder": {
        "id": 3704,
        "name": "CanadaHelps"
      },
      "charity": {
        "id": 14992,
        "name": "HIPPY Canada (Home Instruction for Parents of Preschool Youngsters)",
        "recipient_size": 1971541
      },
      "gift_amount": 77389.0,
      "focus": "Education",
      "focus_display": "Early childhood education",
      "location": {
        "province": "BC",
        "city": "Vancouver"
      },
      "year": 2022,
      "details": ""
    },
    {
      "id": 1619192,
      "funder": {
        "id": 3704,
        "name": "CanadaHelps"
      },
      "charity": {
        "id": 53050,
        "name": "Madrona School Society",
        "recipient_size": 2898202
      },
      "gift_amount": 75175.0,
      "focus": "Education",
      "focus_display": "Education",
      "location": {
        "province": "BC",
        "city": "Vancouver"
      },
      "year": 2019,
      "details": null
    },
    {
      "id": 1756264,
      "funder": {
        "id": 3704,
        "name": "CanadaHelps"
      },
      "charity": {
        "id": 14992,
        "name": "HIPPY Canada (Home Instruction for Parents of Preschool Youngsters)",
        "recipient_size": 1971541
      },
      "gift_amount": 72418.0,
      "focus": "Education",
      "focus_display": "Early childhood education",
      "location": {
        "province": "BC",
        "city": "Vancouver"
      },
      "year": 2020,
      "details": null
    },
    {
      "id": 69581,
      "funder": {
        "id": 3704,
        "name": "CanadaHelps"
      },
      "charity": {
        "id": 48546,
        "name": "Namo Buddha Foundation",
        "recipient_size": 213565
      },
      "gift_amount": 72103.0,
      "focus": "Education",
      "focus_display": "Education",
      "location": {
        "province": "BC",
        "city": "Vancouver"
      },
      "year": 2014,
      "details": null
    },
    {
      "id": 2077013,
      "funder": {
        "id": 3704,
        "name": "CanadaHelps"
      },
      "charity": {
        "id": 48546,
        "name": "Namo Buddha Foundation",
        "recipient_size": 213565
      },
      "gift_amount": 71242.0,
      "focus": "Education",
      "focus_display": "Education",
      "location": {
        "province": "BC",
        "city": "Vancouver"
      },
      "year": 2021,
      "details": ""
    },
    {
      "id": 1756231,
      "funder": {
        "id": 3704,
        "name": "CanadaHelps"
      },
      "charity": {
        "id": 209584,
        "name": "Vancouver Aquarium Marine Science Centre",
        "recipient_size": 46017194
      },
      "gift_amount": 70567.0,
      "focus": "Education",
      "focus_display": "Science museums",
      "location": {
        "province": "BC",
        "city": "Vancouver"
      },
      "year": 2020,
      "details": null
    },
    {
      "id": 2082409,
      "funder": {
        "id": 3704,
        "name": "CanadaHelps"
      },
      "charity": {
        "id": 14992,
        "name": "HIPPY Canada (Home Instruction for Parents of Preschool Youngsters)",
        "recipient_size": 1971541
      },
      "gift_amount": 69367.0,
      "focus": "Education",
      "focus_display": "Early childhood education",
      "location": {
        "province": "BC",
        "city": "Vancouver"
      },
      "year": 2021,
      "details": ""
    },
    {
      "id": 1756192,
      "funder": {
        "id": 3704,
        "name": "CanadaHelps"
      },
      "charity": {
        "id": 53050,
        "name": "Madrona School Society",
        "recipient_size": 2898202
      },
      "gift_amount": 68071.0,
      "focus": "Education",
      "focus_display": "Education",
      "location": {
        "province": "BC",
        "city": "Vancouver"
      },
      "year": 2020,
      "details": null
    },
    {
      "id": 1147286,
      "funder": {
        "id": 3704,
        "name": "CanadaHelps"
      },
      "charity": {
        "id": 48546,
        "name": "Namo Buddha Foundation",
        "recipient_size": 213565
      },
      "gift_amount": 67385.0,
      "focus": "Education",
      "focus_display": "Education",
      "location": {
        "province": "BC",
        "city": "Vancouver"
      },
      "year": 2016,
      "details": null
    },
    {
      "id": 2428238,
      "funder": {
        "id": 3704,
        "name": "CanadaHelps"
      },
      "charity": {
        "id": 48546,
        "name": "Namo Buddha Foundation",
        "recipient_size": 213565
      },
      "gift_amount": 61640.0,
      "focus": "Education",
      "focus_display": "Education",
      "location": {
        "province": "BC",
        "city": "Vancouver"
      },
      "year": 2022,
      "details": ""
    },
    {
      "id": 2684870,
      "funder": {
        "id": 3704,
        "name": "CanadaHelps"
      },
      "charity": {
        "id": 48546,
        "name": "Namo Buddha Foundation",
        "recipient_size": 213565
      },
      "gift_amount": 58406.0,
      "focus": "Education",
      "focus_display": "Education",
      "location": {
        "province": "BC",
        "city": "Vancouver"
      },
      "year": 2023,
      "details": ""
    },
    {
      "id": 943589,
      "funder": {
        "id": 3704,
        "name": "CanadaHelps"
      },
      "charity": {
        "id": 48546,
        "name": "Namo Buddha Foundation",
        "recipient_size": 213565
      },
      "gift_amount": 52079.0,
      "focus": "Education",
      "focus_display": "Education",
      "location": {
        "province": "BC",
        "city": "Vancouver"
      },
      "year": 2017,
      "details": null
    },
    {
      "id": 2091324,
      "funder": {
        "id": 3704,
        "name": "CanadaHelps"
      },
      "charity": {
        "id": 53050,
        "name": "Madrona School Society",
        "recipient_size": 2898202
      },
      "gift_amount": 51489.0,
      "focus": "Education",
      "focus_display": "Education",
      "location": {
        "province": "BC",
        "city": "Vancouver"
      },
      "year": 2021,
      "details": ""
    },
    {
      "id": 2091278,
      "funder": {
        "id": 3704,
        "name": "CanadaHelps"
      },
      "charity": {
        "id": 18904,
        "name": "Access Africa Canadian Continuing Education Society",
        "recipient_size": 344568
      },
      "gift_amount": 49530.0,
      "focus": "Education",
      "focus_display": "Education",
      "location": {
        "province": "BC",
        "city": "Vancouver"
      },
      "year": 2021,
      "details": ""
    },
    {
      "id": 1755708,
      "funder": {
        "id": 3704,
        "name": "CanadaHelps"
      },
      "charity": {
        "id": 11581,
        "name": "One to One Literacy Society",
        "recipient_size": 403295
      },
      "gift_amount": 45944.0,
      "focus": "Education",
      "focus_display": "Literacy",
      "location": {
        "province": "BC",
        "city": "Vancouver"
      },
      "year": 2020,
      "details": null
    },
    {
      "id": 2430996,
      "funder": {
        "id": 3704,
        "name": "CanadaHelps"
      },
      "charity": {
        "id": 11581,
        "name": "One to One Literacy Society",
        "recipient_size": 403295
      },
      "gift_amount": 45328.0,
      "focus": "Education",
      "focus_display": "Literacy",
      "location": {
        "province": "BC",
        "city": "Vancouver"
      },
      "year": 2022,
      "details": ""
    },
    {
      "id": 1361351,
      "funder": {
        "id": 3704,
        "name": "CanadaHelps"
      },
      "charity": {
        "id": 54492,
        "name": "Kina Social Ventures Society",
        "recipient_size": 83512
      },
      "gift_amount": 42181.0,
      "focus": "Education",
      "focus_display": "Education",
      "location": {
        "province": "BC",
        "city": "Vancouver"
      },
      "year": 2015,
      "details": null
    },
    {
      "id": 2690139,
      "funder": {
        "id": 3704,
        "name": "CanadaHelps"
      },
      "charity": {
        "id": 14992,
        "name": "HIPPY Canada (Home Instruction for Parents of Preschool Youngsters)",
        "recipient_size": 1971541
      },
      "gift_amount": 41025.0,
      "focus": "Education",
      "focus_display": "Early childhood education",
      "location": {
        "province": "BC",
        "city": "Vancouver"
      },
      "year": 2023,
      "details": ""
    },
    {
      "id": 2079750,
      "funder": {
        "id": 3704,
        "name": "CanadaHelps"
      },
      "charity": {
        "id": 11581,
        "name": "One to One Literacy Society",
        "recipient_size": 403295
      },
      "gift_amount": 40627.0,
      "focus": "Education",
      "focus_display": "Literacy",
      "location": {
        "province": "BC",
        "city": "Vancouver"
      },
      "year": 2021,
      "details": ""
    },
    {
      "id": 946554,
      "funder": {
        "id": 3704,
        "name": "CanadaHelps"
      },
      "charity": {
        "id": 14992,
        "name": "HIPPY Canada (Home Instruction for Parents of Preschool Youngsters)",
        "recipient_size": 1971541
      },
      "gift_amount": 36411.0,
      "focus": "Education",
      "focus_display": "Early childhood education",
      "location": {
        "province": "BC",
        "city": "Vancouver"
      },
      "year": 2017,
      "details": null
    },
    {
      "id": 2682865,
      "funder": {
        "id": 3704,
        "name": "CanadaHelps"
      },
      "charity": {
        "id": 10473,
        "name": "Prostitution Alternatives Counselling and Education Society (PACE)",
        "recipient_size": 436543
      },
      "gift_amount": 36220.0,
      "focus": "Education",
      "focus_display": "Education",
      "location": {
        "province": "BC",
        "city": "Vancouver"
      },
      "year": 2023,
      "details": ""
    },
    {
      "id": 2709737,
      "funder": {
        "id": 3704,
        "name": "CanadaHelps"
      },
      "charity": {
        "id": 215,
        "name": "The University of British Columbia",
        "recipient_size": 2605795000
      },
      "gift_amount": 35635.0,
      "focus": "Education",
      "focus_display": "University education",
      "location": {
        "province": "BC",
        "city": "Vancouver"
      },
      "year": 2023,
      "details": ""
    },
    {
      "id": 2435304,
      "funder": {
        "id": 3704,
        "name": "CanadaHelps"
      },
      "charity": {
        "id": 21547,
        "name": "Room To Read Canada",
        "recipient_size": 774287
      },
      "gift_amount": 35043.0,
      "focus": "Education",
      "focus_display": "Literacy",
      "location": {
        "province": "BC",
        "city": "Vancouver"
      },
      "year": 2022,
      "details": ""
    },
    {
      "id": 2083701,
      "funder": {
        "id": 3704,
        "name": "CanadaHelps"
      },
      "charity": {
        "id": 54492,
        "name": "Kina Social Ventures Society",
        "recipient_size": 83512
      },
      "gift_amount": 34090.0,
      "focus": "Education",
      "focus_display": "Education",
      "location": {
        "province": "BC",
        "city": "Vancouver"
      },
      "year": 2021,
      "details": ""
    },
    {
      "id": 2080386,
      "funder": {
        "id": 3704,
        "name": "CanadaHelps"
      },
      "charity": {
        "id": 25260,
        "name": "Afretech Aid Society",
        "recipient_size": 133690
      },
      "gift_amount": 33458.0,
      "focus": "Education",
      "focus_display": "Education",
      "location": {
        "province": "BC",
        "city": "Vancouver"
      },
      "year": 2021,
      "details": ""
    },
    {
      "id": 1625569,
      "funder": {
        "id": 3704,
        "name": "CanadaHelps"
      },
      "charity": {
        "id": 11581,
        "name": "One to One Literacy Society",
        "recipient_size": 403295
      },
      "gift_amount": 33269.0,
      "focus": "Education",
      "focus_display": "Literacy",
      "location": {
        "province": "BC",
        "city": "Vancouver"
      },
      "year": 2019,
      "details": null
    },
    {
      "id": 2687538,
      "funder": {
        "id": 3704,
        "name": "CanadaHelps"
      },
      "charity": {
        "id": 11581,
        "name": "One to One Literacy Society",
        "recipient_size": 403295
      },
      "gift_amount": 30931.0,
      "focus": "Education",
      "focus_display": "Literacy",
      "location": {
        "province": "BC",
        "city": "Vancouver"
      },
      "year": 2023,
      "details": ""
    },
    {
      "id": 2096448,
      "funder": {
        "id": 3704,
        "name": "CanadaHelps"
      },
      "charity": {
        "id": 17403,
        "name": "The Catholic Independent Schools of Vancouver Archdiocese",
        "recipient_size": 130386458
      },
      "gift_amount": 30557.0,
      "focus": "Education",
      "focus_display": "Education",
      "location": {
        "province": "BC",
        "city": "Vancouver"
      },
      "year": 2021,
      "details": ""
    },
    {
      "id": 2077329,
      "funder": {
        "id": 3704,
        "name": "CanadaHelps"
      },
      "charity": {
        "id": 6203,
        "name": "Corpus Christi College Society",
        "recipient_size": 2682422
      },
      "gift_amount": 30192.0,
      "focus": "Education",
      "focus_display": "Separate and faith-based schools",
      "location": {
        "province": "BC",
        "city": "Vancouver"
      },
      "year": 2021,
      "details": ""
    },
    {
      "id": 1488620,
      "funder": {
        "id": 3704,
        "name": "CanadaHelps"
      },
      "charity": {
        "id": 11581,
        "name": "One to One Literacy Society",
        "recipient_size": 403295
      },
      "gift_amount": 30152.0,
      "focus": "Education",
      "focus_display": "Literacy",
      "location": {
        "province": "BC",
        "city": "Vancouver"
      },
      "year": 2018,
      "details": null
    },
    {
      "id": 2426177,
      "funder": {
        "id": 3704,
        "name": "CanadaHelps"
      },
      "charity": {
        "id": 10473,
        "name": "Prostitution Alternatives Counselling and Education Society (PACE)",
        "recipient_size": 436543
      },
      "gift_amount": 28993.0,
      "focus": "Education",
      "focus_display": "Education",
      "location": {
        "province": "BC",
        "city": "Vancouver"
      },
      "year": 2022,
      "details": ""
    },
    {
      "id": 2442904,
      "funder": {
        "id": 3704,
        "name": "CanadaHelps"
      },
      "charity": {
        "id": 18904,
        "name": "Access Africa Canadian Continuing Education Society",
        "recipient_size": 344568
      },
      "gift_amount": 28244.0,
      "focus": "Education",
      "focus_display": "Education",
      "location": {
        "province": "BC",
        "city": "Vancouver"
      },
      "year": 2022,
      "details": ""
    },
    {
      "id": 2074982,
      "funder": {
        "id": 3704,
        "name": "CanadaHelps"
      },
      "charity": {
        "id": 10473,
        "name": "Prostitution Alternatives Counselling and Education Society (PACE)",
        "recipient_size": 436543
      },
      "gift_amount": 27511.0,
      "focus": "Education",
      "focus_display": "Education",
      "location": {
        "province": "BC",
        "city": "Vancouver"
      },
      "year": 2021,
      "details": ""
    },
    {
      "id": 1625214,
      "funder": {
        "id": 3704,
        "name": "CanadaHelps"
      },
      "charity": {
        "id": 25260,
        "name": "Afretech Aid Society",
        "recipient_size": 133690
      },
      "gift_amount": 27063.0,
      "focus": "Education",
      "focus_display": "Education",
      "location": {
        "province": "BC",
        "city": "Vancouver"
      },
      "year": 2019,
      "details": null
    },
    {
      "id": 1486641,
      "funder": {
        "id": 3704,
        "name": "CanadaHelps"
      },
      "charity": {
        "id": 53050,
        "name": "Madrona School Society",
        "recipient_size": 2898202
      },
      "gift_amount": 26872.0,
      "focus": "Education",
      "focus_display": "Education",
      "location": {
        "province": "BC",
        "city": "Vancouver"
      },
      "year": 2018,
      "details": null
    },
    {
      "id": 1495838,
      "funder": {
        "id": 3704,
        "name": "CanadaHelps"
      },
      "charity": {
        "id": 1531,
        "name": "Vancouver Christian School Association",
        "recipient_size": 10637434
      },
      "gift_amount": 26593.0,
      "focus": "Education",
      "focus_display": "Separate and faith-based schools",
      "location": {
        "province": "BC",
        "city": "Vancouver"
      },
      "year": 2018,
      "details": null
    },
    {
      "id": 2684738,
      "funder": {
        "id": 3704,
        "name": "CanadaHelps"
      },
      "charity": {
        "id": 61170,
        "name": "Safe Online Outreach Society",
        "recipient_size": 37775
      },
      "gift_amount": 26529.0,
      "focus": "Education",
      "focus_display": "Education",
      "location": {
        "province": "BC",
        "city": "Vancouver"
      },
      "year": 2023,
      "details": ""
    },
    {
      "id": 1754705,
      "funder": {
        "id": 3704,
        "name": "CanadaHelps"
      },
      "charity": {
        "id": 54492,
        "name": "Kina Social Ventures Society",
        "recipient_size": 83512
      },
      "gift_amount": 26390.0,
      "focus": "Education",
      "focus_display": "Education",
      "location": {
        "province": "BC",
        "city": "Vancouver"
      },
      "year": 2020,
      "details": null
    },
    {
      "id": 1754692,
      "funder": {
        "id": 3704,
        "name": "CanadaHelps"
      },
      "charity": {
        "id": 21547,
        "name": "Room To Read Canada",
        "recipient_size": 774287
      },
      "gift_amount": 26274.0,
      "focus": "Education",
      "focus_display": "Literacy",
      "location": {
        "province": "BC",
        "city": "Vancouver"
      },
      "year": 2020,
      "details": null
    },
    {
      "id": 1484100,
      "funder": {
        "id": 3704,
        "name": "CanadaHelps"
      },
      "charity": {
        "id": 14992,
        "name": "HIPPY Canada (Home Instruction for Parents of Preschool Youngsters)",
        "recipient_size": 1971541
      },
      "gift_amount": 26272.0,
      "focus": "Education",
      "focus_display": "Early childhood education",
      "location": {
        "province": "BC",
        "city": "Vancouver"
      },
      "year": 2018,
      "details": null
    },
    {
      "id": 2691757,
      "funder": {
        "id": 3704,
        "name": "CanadaHelps"
      },
      "charity": {
        "id": 21547,
        "name": "Room To Read Canada",
        "recipient_size": 774287
      },
      "gift_amount": 25587.0,
      "focus": "Education",
      "focus_display": "Literacy",
      "location": {
        "province": "BC",
        "city": "Vancouver"
      },
      "year": 2023,
      "details": ""
    },
    {
      "id": 2431639,
      "funder": {
        "id": 3704,
        "name": "CanadaHelps"
      },
      "charity": {
        "id": 25260,
        "name": "Afretech Aid Society",
        "recipient_size": 133690
      },
      "gift_amount": 25216.0,
      "focus": "Education",
      "focus_display": "Education",
      "location": {
        "province": "BC",
        "city": "Vancouver"
      },
      "year": 2022,
      "details": ""
    },
    {
      "id": 2093355,
      "funder": {
        "id": 3704,
        "name": "CanadaHelps"
      },
      "charity": {
        "id": 8792,
        "name": "Westcoast Parenting Resources and Education Projects Society",
        "recipient_size": 6254525
      },
      "gift_amount": 25070.0,
      "focus": "Education",
      "focus_display": "Education",
      "location": {
        "province": "BC",
        "city": "Vancouver"
      },
      "year": 2021,
      "details": ""
    },
    {
      "id": 1754573,
      "funder": {
        "id": 3704,
        "name": "CanadaHelps"
      },
      "charity": {
        "id": 25260,
        "name": "Afretech Aid Society",
        "recipient_size": 133690
      },
      "gift_amount": 24830.0,
      "focus": "Education",
      "focus_display": "Education",
      "location": {
        "province": "BC",
        "city": "Vancouver"
      },
      "year": 2020,
      "details": null
    },
    {
      "id": 2448043,
      "funder": {
        "id": 3704,
        "name": "CanadaHelps"
      },
      "charity": {
        "id": 17403,
        "name": "The Catholic Independent Schools of Vancouver Archdiocese",
        "recipient_size": 130386458
      },
      "gift_amount": 24724.0,
      "focus": "Education",
      "focus_display": "Education",
      "location": {
        "province": "BC",
        "city": "Vancouver"
      },
      "year": 2022,
      "details": ""
    },
    {
      "id": 2428549,
      "funder": {
        "id": 3704,
        "name": "CanadaHelps"
      },
      "charity": {
        "id": 6203,
        "name": "Corpus Christi College Society",
        "recipient_size": 2682422
      },
      "gift_amount": 24436.0,
      "focus": "Education",
      "focus_display": "Separate and faith-based schools",
      "location": {
        "province": "BC",
        "city": "Vancouver"
      },
      "year": 2022,
      "details": ""
    },
    {
      "id": 2688142,
      "funder": {
        "id": 3704,
        "name": "CanadaHelps"
      },
      "charity": {
        "id": 25260,
        "name": "Afretech Aid Society",
        "recipient_size": 133690
      },
      "gift_amount": 24163.0,
      "focus": "Education",
      "focus_display": "Education",
      "location": {
        "province": "BC",
        "city": "Vancouver"
      },
      "year": 2023,
      "details": ""
    },
    {
      "id": 958763,
      "funder": {
        "id": 3704,
        "name": "CanadaHelps"
      },
      "charity": {
        "id": 1531,
        "name": "Vancouver Christian School Association",
        "recipient_size": 10637434
      },
      "gift_amount": 23986.0,
      "focus": "Education",
      "focus_display": "Separate and faith-based schools",
      "location": {
        "province": "BC",
        "city": "Vancouver"
      },
      "year": 2017,
      "details": null
    },
    {
      "id": 1613470,
      "funder": {
        "id": 3704,
        "name": "CanadaHelps"
      },
      "charity": {
        "id": 215,
        "name": "The University of British Columbia",
        "recipient_size": 2605795000
      },
      "gift_amount": 23002.0,
      "focus": "Education",
      "focus_display": "University education",
      "location": {
        "province": "BC",
        "city": "Vancouver"
      },
      "year": 2019,
      "details": null
    },
    {
      "id": 1620390,
      "funder": {
        "id": 3704,
        "name": "CanadaHelps"
      },
      "charity": {
        "id": 27439,
        "name": "Vancouver Homework Club Society",
        "recipient_size": 116654
      },
      "gift_amount": 22571.0,
      "focus": "Education",
      "focus_display": "Dropout prevention",
      "location": {
        "province": "BC",
        "city": "Vancouver"
      },
      "year": 2019,
      "details": null
    },
    {
      "id": 2705345,
      "funder": {
        "id": 3704,
        "name": "CanadaHelps"
      },
      "charity": {
        "id": 73199,
        "name": "Society for Canadian Women in Science and Technology",
        "recipient_size": 325992
      },
      "gift_amount": 22480.0,
      "focus": "Education",
      "focus_display": "STEM education",
      "location": {
        "province": "BC",
        "city": "Vancouver"
      },
      "year": 2023,
      "details": ""
    },
    {
      "id": 2434951,
      "funder": {
        "id": 3704,
        "name": "CanadaHelps"
      },
      "charity": {
        "id": 54492,
        "name": "Kina Social Ventures Society",
        "recipient_size": 83512
      },
      "gift_amount": 22042.0,
      "focus": "Education",
      "focus_display": "Education",
      "location": {
        "province": "BC",
        "city": "Vancouver"
      },
      "year": 2022,
      "details": ""
    },
    {
      "id": 1622989,
      "funder": {
        "id": 3704,
        "name": "CanadaHelps"
      },
      "charity": {
        "id": 21547,
        "name": "Room To Read Canada",
        "recipient_size": 774287
      },
      "gift_amount": 21675.0,
      "focus": "Education",
      "focus_display": "Literacy",
      "location": {
        "province": "BC",
        "city": "Vancouver"
      },
      "year": 2019,
      "details": null
    },
    {
      "id": 1490646,
      "funder": {
        "id": 3704,
        "name": "CanadaHelps"
      },
      "charity": {
        "id": 21547,
        "name": "Room To Read Canada",
        "recipient_size": 774287
      },
      "gift_amount": 21474.0,
      "focus": "Education",
      "focus_display": "Literacy",
      "location": {
        "province": "BC",
        "city": "Vancouver"
      },
      "year": 2018,
      "details": null
    },
    {
      "id": 2704735,
      "funder": {
        "id": 3704,
        "name": "CanadaHelps"
      },
      "charity": {
        "id": 17403,
        "name": "The Catholic Independent Schools of Vancouver Archdiocese",
        "recipient_size": 130386458
      },
      "gift_amount": 21306.0,
      "focus": "Education",
      "focus_display": "Education",
      "location": {
        "province": "BC",
        "city": "Vancouver"
      },
      "year": 2023,
      "details": ""
    },
    {
      "id": 1754193,
      "funder": {
        "id": 3704,
        "name": "CanadaHelps"
      },
      "charity": {
        "id": 19523,
        "name": "Phoenix Academy",
        "recipient_size": 2483402
      },
      "gift_amount": 21287.0,
      "focus": "Education",
      "focus_display": "Special needs education",
      "location": {
        "province": "BC",
        "city": "Vancouver"
      },
      "year": 2020,
      "details": null
    },
    {
      "id": 77311,
      "funder": {
        "id": 3704,
        "name": "CanadaHelps"
      },
      "charity": {
        "id": 1531,
        "name": "Vancouver Christian School Association",
        "recipient_size": 10637434
      },
      "gift_amount": 21196.0,
      "focus": "Education",
      "focus_display": "Separate and faith-based schools",
      "location": {
        "province": "BC",
        "city": "Vancouver"
      },
      "year": 2014,
      "details": null
    },
    {
      "id": 77312,
      "funder": {
        "id": 3704,
        "name": "CanadaHelps"
      },
      "charity": {
        "id": 1531,
        "name": "Vancouver Christian School Association",
        "recipient_size": 10637434
      },
      "gift_amount": 21196.0,
      "focus": "Education",
      "focus_display": "Separate and faith-based schools",
      "location": {
        "province": "BC",
        "city": "Vancouver"
      },
      "year": 2014,
      "details": null
    },
    {
      "id": 1624027,
      "funder": {
        "id": 3704,
        "name": "CanadaHelps"
      },
      "charity": {
        "id": 14992,
        "name": "HIPPY Canada (Home Instruction for Parents of Preschool Youngsters)",
        "recipient_size": 1971541
      },
      "gift_amount": 21038.0,
      "focus": "Education",
      "focus_display": "Early childhood education",
      "location": {
        "province": "BC",
        "city": "Vancouver"
      },
      "year": 2019,
      "details": null
    },
    {
      "id": 1623205,
      "funder": {
        "id": 3704,
        "name": "CanadaHelps"
      },
      "charity": {
        "id": 54492,
        "name": "Kina Social Ventures Society",
        "recipient_size": 83512
      },
      "gift_amount": 20854.0,
      "focus": "Education",
      "focus_display": "Education",
      "location": {
        "province": "BC",
        "city": "Vancouver"
      },
      "year": 2019,
      "details": null
    },
    {
      "id": 2095985,
      "funder": {
        "id": 3704,
        "name": "CanadaHelps"
      },
      "charity": {
        "id": 73206,
        "name": "The Vancouver Institute",
        "recipient_size": 96197
      },
      "gift_amount": 20597.0,
      "focus": "Education",
      "focus_display": "Post-secondary education",
      "location": {
        "province": "BC",
        "city": "Vancouver"
      },
      "year": 2021,
      "details": ""
    },
    {
      "id": 2442954,
      "funder": {
        "id": 3704,
        "name": "CanadaHelps"
      },
      "charity": {
        "id": 53050,
        "name": "Madrona School Society",
        "recipient_size": 2898202
      },
      "gift_amount": 20420.0,
      "focus": "Education",
      "focus_display": "Education",
      "location": {
        "province": "BC",
        "city": "Vancouver"
      },
      "year": 2022,
      "details": ""
    },
    {
      "id": 1166172,
      "funder": {
        "id": 3704,
        "name": "CanadaHelps"
      },
      "charity": {
        "id": 1531,
        "name": "Vancouver Christian School Association",
        "recipient_size": 10637434
      },
      "gift_amount": 20179.0,
      "focus": "Education",
      "focus_display": "Separate and faith-based schools",
      "location": {
        "province": "BC",
        "city": "Vancouver"
      },
      "year": 2016,
      "details": null
    },
    {
      "id": 947800,
      "funder": {
        "id": 3704,
        "name": "CanadaHelps"
      },
      "charity": {
        "id": 21547,
        "name": "Room To Read Canada",
        "recipient_size": 774287
      },
      "gift_amount": 19928.0,
      "focus": "Education",
      "focus_display": "Literacy",
      "location": {
        "province": "BC",
        "city": "Vancouver"
      },
      "year": 2017,
      "details": null
    },
    {
      "id": 2447586,
      "funder": {
        "id": 3704,
        "name": "CanadaHelps"
      },
      "charity": {
        "id": 73206,
        "name": "The Vancouver Institute",
        "recipient_size": 96197
      },
      "gift_amount": 19928.0,
      "focus": "Education",
      "focus_display": "Post-secondary education",
      "location": {
        "province": "BC",
        "city": "Vancouver"
      },
      "year": 2022,
      "details": ""
    },
    {
      "id": 2084046,
      "funder": {
        "id": 3704,
        "name": "CanadaHelps"
      },
      "charity": {
        "id": 21547,
        "name": "Room To Read Canada",
        "recipient_size": 774287
      },
      "gift_amount": 19687.0,
      "focus": "Education",
      "focus_display": "Literacy",
      "location": {
        "province": "BC",
        "city": "Vancouver"
      },
      "year": 2021,
      "details": ""
    },
    {
      "id": 1475501,
      "funder": {
        "id": 3704,
        "name": "CanadaHelps"
      },
      "charity": {
        "id": 25260,
        "name": "Afretech Aid Society",
        "recipient_size": 133690
      },
      "gift_amount": 19657.0,
      "focus": "Education",
      "focus_display": "Education",
      "location": {
        "province": "BC",
        "city": "Vancouver"
      },
      "year": 2018,
      "details": null
    },
    {
      "id": 1150110,
      "funder": {
        "id": 3704,
        "name": "CanadaHelps"
      },
      "charity": {
        "id": 25260,
        "name": "Afretech Aid Society",
        "recipient_size": 133690
      },
      "gift_amount": 17923.0,
      "focus": "Education",
      "focus_display": "Education",
      "location": {
        "province": "BC",
        "city": "Vancouver"
      },
      "year": 2016,
      "details": null
    },
    {
      "id": 950866,
      "funder": {
        "id": 3704,
        "name": "CanadaHelps"
      },
      "charity": {
        "id": 27439,
        "name": "Vancouver Homework Club Society",
        "recipient_size": 116654
      },
      "gift_amount": 17780.0,
      "focus": "Education",
      "focus_display": "Dropout prevention",
      "location": {
        "province": "BC",
        "city": "Vancouver"
      },
      "year": 2017,
      "details": null
    },
    {
      "id": 2097070,
      "funder": {
        "id": 3704,
        "name": "CanadaHelps"
      },
      "charity": {
        "id": 73199,
        "name": "Society for Canadian Women in Science and Technology",
        "recipient_size": 325992
      },
      "gift_amount": 17450.0,
      "focus": "Education",
      "focus_display": "STEM education",
      "location": {
        "province": "BC",
        "city": "Vancouver"
      },
      "year": 2021,
      "details": ""
    },
    {
      "id": 947545,
      "funder": {
        "id": 3704,
        "name": "CanadaHelps"
      },
      "charity": {
        "id": 54492,
        "name": "Kina Social Ventures Society",
        "recipient_size": 83512
      },
      "gift_amount": 17421.0,
      "focus": "Education",
      "focus_display": "Education",
      "location": {
        "province": "BC",
        "city": "Vancouver"
      },
      "year": 2017,
      "details": null
    },
    {
      "id": 2453074,
      "funder": {
        "id": 3704,
        "name": "CanadaHelps"
      },
      "charity": {
        "id": 215,
        "name": "The University of British Columbia",
        "recipient_size": 2605795000
      },
      "gift_amount": 17313.0,
      "focus": "Education",
      "focus_display": "University education",
      "location": {
        "province": "BC",
        "city": "Vancouver"
      },
      "year": 2022,
      "details": ""
    },
    {
      "id": 1366033,
      "funder": {
        "id": 3704,
        "name": "CanadaHelps"
      },
      "charity": {
        "id": 1531,
        "name": "Vancouver Christian School Association",
        "recipient_size": 10637434
      },
      "gift_amount": 17279.0,
      "focus": "Education",
      "focus_display": "Separate and faith-based schools",
      "location": {
        "province": "BC",
        "city": "Vancouver"
      },
      "year": 2015,
      "details": null
    },
    {
      "id": 2095692,
      "funder": {
        "id": 3704,
        "name": "CanadaHelps"
      },
      "charity": {
        "id": 209584,
        "name": "Vancouver Aquarium Marine Science Centre",
        "recipient_size": 46017194
      },
      "gift_amount": 17037.0,
      "focus": "Education",
      "focus_display": "Science museums",
      "location": {
        "province": "BC",
        "city": "Vancouver"
      },
      "year": 2021,
      "details": ""
    },
    {
      "id": 1366041,
      "funder": {
        "id": 3704,
        "name": "CanadaHelps"
      },
      "charity": {
        "id": 27439,
        "name": "Vancouver Homework Club Society",
        "recipient_size": 116654
      },
      "gift_amount": 16442.0,
      "focus": "Education",
      "focus_display": "Dropout prevention",
      "location": {
        "province": "BC",
        "city": "Vancouver"
      },
      "year": 2015,
      "details": null
    },
    {
      "id": 2703982,
      "funder": {
        "id": 3704,
        "name": "CanadaHelps"
      },
      "charity": {
        "id": 209584,
        "name": "Vancouver Aquarium Marine Science Centre",
        "recipient_size": 46017194
      },
      "gift_amount": 16102.0,
      "focus": "Education",
      "focus_display": "Science museums",
      "location": {
        "province": "BC",
        "city": "Vancouver"
      },
      "year": 2023,
      "details": ""
    },
    {
      "id": 2448650,
      "funder": {
        "id": 3704,
        "name": "CanadaHelps"
      },
      "charity": {
        "id": 73199,
        "name": "Society for Canadian Women in Science and Technology",
        "recipient_size": 325992
      },
      "gift_amount": 16084.0,
      "focus": "Education",
      "focus_display": "STEM education",
      "location": {
        "province": "BC",
        "city": "Vancouver"
      },
      "year": 2022,
      "details": ""
    },
    {
      "id": 1753459,
      "funder": {
        "id": 3704,
        "name": "CanadaHelps"
      },
      "charity": {
        "id": 6203,
        "name": "Corpus Christi College Society",
        "recipient_size": 2682422
      },
      "gift_amount": 15947.0,
      "focus": "Education",
      "focus_display": "Separate and faith-based schools",
      "location": {
        "province": "BC",
        "city": "Vancouver"
      },
      "year": 2020,
      "details": null
    },
    {
      "id": 1753301,
      "funder": {
        "id": 3704,
        "name": "CanadaHelps"
      },
      "charity": {
        "id": 215,
        "name": "The University of British Columbia",
        "recipient_size": 2605795000
      },
      "gift_amount": 15167.0,
      "focus": "Education",
      "focus_display": "University education",
      "location": {
        "province": "BC",
        "city": "Vancouver"
      },
      "year": 2020,
      "details": null
    },
    {
      "id": 2699680,
      "funder": {
        "id": 3704,
        "name": "CanadaHelps"
      },
      "charity": {
        "id": 53050,
        "name": "Madrona School Society",
        "recipient_size": 2898202
      },
      "gift_amount": 14883.0,
      "focus": "Education",
      "focus_display": "Education",
      "location": {
        "province": "BC",
        "city": "Vancouver"
      },
      "year": 2023,
      "details": ""
    },
    {
      "id": 1485271,
      "funder": {
        "id": 3704,
        "name": "CanadaHelps"
      },
      "charity": {
        "id": 54492,
        "name": "Kina Social Ventures Society",
        "recipient_size": 83512
      },
      "gift_amount": 14216.0,
      "focus": "Education",
      "focus_display": "Education",
      "location": {
        "province": "BC",
        "city": "Vancouver"
      },
      "year": 2018,
      "details": null
    },
    {
      "id": 72212,
      "funder": {
        "id": 3704,
        "name": "CanadaHelps"
      },
      "charity": {
        "id": 21547,
        "name": "Room To Read Canada",
        "recipient_size": 774287
      },
      "gift_amount": 14200.0,
      "focus": "Education",
      "focus_display": "Literacy",
      "location": {
        "province": "BC",
        "city": "Vancouver"
      },
      "year": 2014,
      "details": null
    },
    {
      "id": 1156689,
      "funder": {
        "id": 3704,
        "name": "CanadaHelps"
      },
      "charity": {
        "id": 27439,
        "name": "Vancouver Homework Club Society",
        "recipient_size": 116654
      },
      "gift_amount": 14025.0,
      "focus": "Education",
      "focus_display": "Dropout prevention",
      "location": {
        "province": "BC",
        "city": "Vancouver"
      },
      "year": 2016,
      "details": null
    },
    {
      "id": 293951,
      "funder": {
        "id": 3704,
        "name": "CanadaHelps"
      },
      "charity": {
        "id": 1531,
        "name": "Vancouver Christian School Association",
        "recipient_size": 10637434
      },
      "gift_amount": 14025.0,
      "focus": "Education",
      "focus_display": "Separate and faith-based schools",
      "location": {
        "province": "BC",
        "city": "Vancouver"
      },
      "year": 2013,
      "details": null
    },
    {
      "id": 1626824,
      "funder": {
        "id": 3704,
        "name": "CanadaHelps"
      },
      "charity": {
        "id": 6203,
        "name": "Corpus Christi College Society",
        "recipient_size": 2682422
      },
      "gift_amount": 13654.0,
      "focus": "Education",
      "focus_display": "Separate and faith-based schools",
      "location": {
        "province": "BC",
        "city": "Vancouver"
      },
      "year": 2019,
      "details": null
    },
    {
      "id": 2084779,
      "funder": {
        "id": 3704,
        "name": "CanadaHelps"
      },
      "charity": {
        "id": 19523,
        "name": "Phoenix Academy",
        "recipient_size": 2483402
      },
      "gift_amount": 13193.0,
      "focus": "Education",
      "focus_display": "Special needs education",
      "location": {
        "province": "BC",
        "city": "Vancouver"
      },
      "year": 2021,
      "details": ""
    },
    {
      "id": 2701657,
      "funder": {
        "id": 3704,
        "name": "CanadaHelps"
      },
      "charity": {
        "id": 8792,
        "name": "Westcoast Parenting Resources and Education Projects Society",
        "recipient_size": 6254525
      },
      "gift_amount": 13173.0,
      "focus": "Education",
      "focus_display": "Education",
      "location": {
        "province": "BC",
        "city": "Vancouver"
      },
      "year": 2023,
      "details": ""
    },
    {
      "id": 2685164,
      "funder": {
        "id": 3704,
        "name": "CanadaHelps"
      },
      "charity": {
        "id": 6203,
        "name": "Corpus Christi College Society",
        "recipient_size": 2682422
      },
      "gift_amount": 13037.0,
      "focus": "Education",
      "focus_display": "Separate and faith-based schools",
      "location": {
        "province": "BC",
        "city": "Vancouver"
      },
      "year": 2023,
      "details": ""
    },
    {
      "id": 945047,
      "funder": {
        "id": 3704,
        "name": "CanadaHelps"
      },
      "charity": {
        "id": 25260,
        "name": "Afretech Aid Society",
        "recipient_size": 133690
      },
      "gift_amount": 12614.0,
      "focus": "Education",
      "focus_display": "Education",
      "location": {
        "province": "BC",
        "city": "Vancouver"
      },
      "year": 2017,
      "details": null
    },
    {
      "id": 1752661,
      "funder": {
        "id": 3704,
        "name": "CanadaHelps"
      },
      "charity": {
        "id": 17403,
        "name": "The Catholic Independent Schools of Vancouver Archdiocese",
        "recipient_size": 130386458
      },
      "gift_amount": 12311.0,
      "focus": "Education",
      "focus_display": "Education",
      "location": {
        "province": "BC",
        "city": "Vancouver"
      },
      "year": 2020,
      "details": null
    },
    {
      "id": 2453893,
      "funder": {
        "id": 3704,
        "name": "CanadaHelps"
      },
      "charity": {
        "id": 2176,
        "name": "The Board of Education of School District No. 39 (Vancouver)",
        "recipient_size": 606232431
      },
      "gift_amount": 11768.0,
      "focus": "Education",
      "focus_display": "Secondary education",
      "location": {
        "province": "BC",
        "city": "Vancouver"
      },
      "year": 2022,
      "details": ""
    },
    {
      "id": 2704268,
      "funder": {
        "id": 3704,
        "name": "CanadaHelps"
      },
      "charity": {
        "id": 73206,
        "name": "The Vancouver Institute",
        "recipient_size": 96197
      },
      "gift_amount": 11669.0,
      "focus": "Education",
      "focus_display": "Post-secondary education",
      "location": {
        "province": "BC",
        "city": "Vancouver"
      },
      "year": 2023,
      "details": ""
    },
    {
      "id": 293728,
      "funder": {
        "id": 3704,
        "name": "CanadaHelps"
      },
      "charity": {
        "id": 10473,
        "name": "Prostitution Alternatives Counselling and Education Society (PACE)",
        "recipient_size": 436543
      },
      "gift_amount": 11659.0,
      "focus": "Education",
      "focus_display": "Education",
      "location": {
        "province": "BC",
        "city": "Vancouver"
      },
      "year": 2013,
      "details": null
    },
    {
      "id": 2101487,
      "funder": {
        "id": 3704,
        "name": "CanadaHelps"
      },
      "charity": {
        "id": 215,
        "name": "The University of British Columbia",
        "recipient_size": 2605795000
      },
      "gift_amount": 11564.0,
      "focus": "Education",
      "focus_display": "University education",
      "location": {
        "province": "BC",
        "city": "Vancouver"
      },
      "year": 2021,
      "details": ""
    },
    {
      "id": 1480305,
      "funder": {
        "id": 3704,
        "name": "CanadaHelps"
      },
      "charity": {
        "id": 6203,
        "name": "Corpus Christi College Society",
        "recipient_size": 2682422
      },
      "gift_amount": 11290.0,
      "focus": "Education",
      "focus_display": "Separate and faith-based schools",
      "location": {
        "province": "BC",
        "city": "Vancouver"
      },
      "year": 2018,
      "details": null
    },
    {
      "id": 2447302,
      "funder": {
        "id": 3704,
        "name": "CanadaHelps"
      },
      "charity": {
        "id": 209584,
        "name": "Vancouver Aquarium Marine Science Centre",
        "recipient_size": 46017194
      },
      "gift_amount": 10434.0,
      "focus": "Education",
      "focus_display": "Science museums",
      "location": {
        "province": "BC",
        "city": "Vancouver"
      },
      "year": 2022,
      "details": ""
    }
  ]
}
